[
  {"name": "Stephansplatz", "municipality": "Wien", "lat": 48.208547, "lon": 16.373047, "rbl": 4315},
  {"name": "Karlsplatz", "municipality": "Wien", "lat": 48.198626, "lon": 16.371008, "rbl": 4313},
  {"name": "Westbahnhof", "municipality": "Wien", "lat": 48.196980, "lon": 16.338540, "rbl": 4316},
  {"name": "Praterstern", "municipality": "Wien", "lat": 48.218494, "lon": 16.392067, "rbl": 4317},
  {"name": "Schwedenplatz", "municipality": "Wien", "lat": 48.211503, "lon": 16.378478, "rbl": 4306},
  {"name": "Schottentor", "municipality": "Wien", "lat": 48.215229, "lon": 16.361034, "rbl": 4318},
  {"name": "Volkstheater", "municipality": "Wien", "lat": 48.205497, "lon": 16.356506, "rbl": 4305},
  {"name": "Landstraße", "municipality": "Wien", "lat": 48.199783, "lon": 16.384503, "rbl": 4319},
  {"name": "Hauptbahnhof", "municipality": "Wien", "lat": 48.184622, "lon": 16.377464, "rbl": 4302},
  {"name": "Meidling Hauptstraße", "municipality": "Wien", "lat": 48.178523, "lon": 16.333008, "rbl": 4301},
  {"name": "Längenfeldgasse", "municipality": "Wien", "lat": 48.186489, "lon": 16.346508, "rbl": 4304},
  {"name": "Kettenbrückengasse", "municipality": "Wien", "lat": 48.192489, "lon": 16.358508, "rbl": 4308},
  {"name": "Pilgramgasse", "municipality": "Wien", "lat": 48.192489, "lon": 16.352508, "rbl": 4309},
  {"name": "Museumsquartier", "municipality": "Wien", "lat": 48.203489, "lon": 16.359008, "rbl": 4310},
  {"name": "Herrengasse", "municipality": "Wien", "lat": 48.210489, "lon": 16.365508, "rbl": 4311},
  {"name": "Stubentor", "municipality": "Wien", "lat": 48.208489, "lon": 16.379508, "rbl": 4312},
  {"name": "Stadtpark", "municipality": "Wien", "lat": 48.205063, "lon": 16.379465, "rbl": 4321},
  {"name": "Rochusgasse", "municipality": "Wien", "lat": 48.201963, "lon": 16.392465, "rbl": 4322},
  {"name": "Kardinal-Nagl-Platz", "municipality": "Wien", "lat": 48.199963, "lon": 16.398465, "rbl": 4323},
  {"name": "Schlachthausgasse", "municipality": "Wien", "lat": 48.197463, "lon": 16.403065, "rbl": 4324},
  {"name": "Rennweg", "municipality": "Wien", "lat": 48.193463, "lon": 16.388065, "rbl": 4325},
  {"name": "Taubstummengasse", "municipality": "Wien", "lat": 48.193463, "lon": 16.373065, "rbl": 4326},
  {"name": "Südtiroler Platz", "municipality": "Wien", "lat": 48.186463, "lon": 16.379065, "rbl": 4327},
  {"name": "Keplerplatz", "municipality": "Wien", "lat": 48.183463, "lon": 16.382065, "rbl": 4328},
  {"name": "Reumannplatz", "municipality": "Wien", "lat": 48.172463, "lon": 16.384065, "rbl": 4329},
  {"name": "Neubaugasse", "municipality": "Wien", "lat": 48.199463, "lon": 16.351065, "rbl": 4330},
  {"name": "Zieglergasse", "municipality": "Wien", "lat": 48.201463, "lon": 16.348065, "rbl": 4331},
  {"name": "Burggasse-Stadthalle", "municipality": "Wien", "lat": 48.205463, "lon": 16.339065, "rbl": 4332},
  {"name": "Thaliastraße", "municipality": "Wien", "lat": 48.215463, "lon": 16.341065, "rbl": 4333},
  {"name": "Josefstädter Straße", "municipality": "Wien", "lat": 48.218463, "lon": 16.343065, "rbl": 4334},
  {"name": "Alser Straße", "municipality": "Wien", "lat": 48.221463, "lon": 16.345065, "rbl": 4335},
  {"name": "Rathaus", "municipality": "Wien", "lat": 48.210863, "lon": 16.357265, "rbl": 4336},
  {"name": "Schottenring", "municipality": "Wien", "lat": 48.216863, "lon": 16.363265, "rbl": 4337},
  {"name": "Rossauer Lände", "municipality": "Wien", "lat": 48.221863, "lon": 16.370265, "rbl": 4338},
  {"name": "Friedensbrücke", "municipality": "Wien", "lat": 48.228863, "lon": 16.377265, "rbl": 4339},
  {"name": "Taborstraße", "municipality": "Wien", "lat": 48.219863, "lon": 16.381265, "rbl": 4341},
  {"name": "Nestroyplatz", "municipality": "Wien", "lat": 48.214863, "lon": 16.388265, "rbl": 4342},
  {"name": "Donaumarina", "municipality": "Wien", "lat": 48.225863, "lon": 16.395265, "rbl": 4343},
  {"name": "Stadion", "municipality": "Wien", "lat": 48.233863, "lon": 16.402265, "rbl": 4344},
  {"name": "Krieau", "municipality": "Wien", "lat": 48.230863, "lon": 16.409265, "rbl": 4345},
  {"name": "Messe-Prater", "municipality": "Wien", "lat": 48.225863, "lon": 16.416265, "rbl": 4346},
  {"name": "Vorgartenstraße", "municipality": "Wien", "lat": 48.222863, "lon": 16.423265, "rbl": 4347},
  {"name": "Hausfeldstraße", "municipality": "Wien", "lat": 48.224863, "lon": 16.431265, "rbl": 4348},
  {"name": "Aspernstraße", "municipality": "Wien", "lat": 48.226863, "lon": 16.441265, "rbl": 4349},
  {"name": "Donaustadtbrücke", "municipality": "Wien", "lat": 48.227863, "lon": 16.451265, "rbl": 4350},
  {"name": "Stadlau", "municipality": "Wien", "lat": 48.222863, "lon": 16.461265, "rbl": 4351},
  {"name": "Hardeggasse", "municipality": "Wien", "lat": 48.220863, "lon": 16.471265, "rbl": 4352},
  {"name": "Donaustadt", "municipality": "Wien", "lat": 48.227863, "lon": 16.481265, "rbl": 4353},
  {"name": "Alte Donau", "municipality": "Wien", "lat": 48.235863, "lon": 16.429265, "rbl": 4354},
  {"name": "Kaisermühlen-VIC", "municipality": "Wien", "lat": 48.236863, "lon": 16.412265, "rbl": 4355},
  {"name": "Donauinsel", "municipality": "Wien", "lat": 48.239863, "lon": 16.403265, "rbl": 4356},
  {"name": "Handelskai", "municipality": "Wien", "lat": 48.241863, "lon": 16.392265, "rbl": 4357},
  {"name": "Dresdner Straße", "municipality": "Wien", "lat": 48.243863, "lon": 16.382265, "rbl": 4358},
  {"name": "Jägerstraße", "municipality": "Wien", "lat": 48.246863, "lon": 16.374265, "rbl": 4359},
  {"name": "Spittelau", "municipality": "Wien", "lat": 48.232863, "lon": 16.363265, "rbl": 4360},
  {"name": "Nußdorfer Straße", "municipality": "Wien", "lat": 48.238863, "lon": 16.355265, "rbl": 4361},
  {"name": "Währinger Straße Volksoper", "municipality": "Wien", "lat": 48.225863, "lon": 16.346265, "rbl": 4362},
  {"name": "Michelbeuern AKH", "municipality": "Wien", "lat": 48.229863, "lon": 16.350265, "rbl": 4363},
  {"name": "Gersthof", "municipality": "Wien", "lat": 48.238863, "lon": 16.333265, "rbl": 4364},
  {"name": "Hernals", "municipality": "Wien", "lat": 48.229863, "lon": 16.324265, "rbl": 4365},
  {"name": "Ottakring", "municipality": "Wien", "lat": 48.214863, "lon": 16.312265, "rbl": 4366},
  {"name": "Kendlerstraße", "municipality": "Wien", "lat": 48.209863, "lon": 16.306265, "rbl": 4367},
  {"name": "Johnstraße", "municipality": "Wien", "lat": 48.200863, "lon": 16.299265, "rbl": 4368},
  {"name": "Schweglerstraße", "municipality": "Wien", "lat": 48.196863, "lon": 16.293265, "rbl": 4369},
  {"name": "Hütteldorfer Straße", "municipality": "Wien", "lat": 48.193863, "lon": 16.288265, "rbl": 4370},
  {"name": "Ober St. Veit", "municipality": "Wien", "lat": 48.188863, "lon": 16.263265, "rbl": 4371},
  {"name": "Unter St. Veit", "municipality": "Wien", "lat": 48.185863, "lon": 16.272265, "rbl": 4372},
  {"name": "Braunschweiggasse", "municipality": "Wien", "lat": 48.182863, "lon": 16.281265, "rbl": 4373},
  {"name": "Hietzing", "municipality": "Wien", "lat": 48.185863, "lon": 16.298265, "rbl": 4374},
  {"name": "Schönbrunn", "municipality": "Wien", "lat": 48.186863, "lon": 16.312265, "rbl": 4375},
  {"name": "Margaretengürtel", "municipality": "Wien", "lat": 48.187863, "lon": 16.333265, "rbl": 4376},
  {"name": "Gumpendorfer Straße", "municipality": "Wien", "lat": 48.194863, "lon": 16.347265, "rbl": 4377},
  {"name": "Matzleinsdorfer Platz", "municipality": "Wien", "lat": 48.181863, "lon": 16.367265, "rbl": 4378},
  {"name": "Enkplatz", "municipality": "Wien", "lat": 48.175863, "lon": 16.394265, "rbl": 4379},
  {"name": "Gasometer", "municipality": "Wien", "lat": 48.185863, "lon": 16.419265, "rbl": 4380},
  {"name": "Erdberg", "municipality": "Wien", "lat": 48.191863, "lon": 16.407265, "rbl": 4381},
  {"name": "Zippererstraße", "municipality": "Wien", "lat": 48.196863, "lon": 16.399265, "rbl": 4382},
  {"name": "Simmering", "municipality": "Wien", "lat": 48.179863, "lon": 16.428265, "rbl": 4383},
  {"name": "Niederhofstraße", "municipality": "Wien", "lat": 48.172863, "lon": 16.440265, "rbl": 4384},
  {"name": "Zentralfriedhof", "municipality": "Wien", "lat": 48.155863, "lon": 16.441265, "rbl": 4385},
  {"name": "Oberlaa", "municipality": "Wien", "lat": 48.144863, "lon": 16.401265, "rbl": 4386},
  {"name": "Tscherttegasse", "municipality": "Wien", "lat": 48.150863, "lon": 16.393265, "rbl": 4387},
  {"name": "Alterlaa", "municipality": "Wien", "lat": 48.153863, "lon": 16.379265, "rbl": 4388},
  {"name": "Erlaaer Straße", "municipality": "Wien", "lat": 48.160863, "lon": 16.371265, "rbl": 4389},
  {"name": "Perfektastraße", "municipality": "Wien", "lat": 48.166863, "lon": 16.362265, "rbl": 4390},
  {"name": "Siebenhirten", "municipality": "Wien", "lat": 48.139863, "lon": 16.340265, "rbl": 4391},
  {"name": "Philadelphiabrücke", "municipality": "Wien", "lat": 48.150863, "lon": 16.332265, "rbl": 4392},
  {"name": "Am Schöpfwerk", "municipality": "Wien", "lat": 48.160863, "lon": 16.322265, "rbl": 4393},
  {"name": "Floridsdorf", "municipality": "Wien", "lat": 48.253863, "lon": 16.395265, "rbl": 4399},
  {"name": "Neue Donau", "municipality": "Wien", "lat": 48.246863, "lon": 16.405265, "rbl": 4400},
  {"name": "Großfeldsiedlung", "municipality": "Wien", "lat": 48.268863, "lon": 16.433265, "rbl": 4401},
  {"name": "Aderklaaer Straße", "municipality": "Wien", "lat": 48.279863, "lon": 16.448265, "rbl": 4402},
  {"name": "Rennbahnweg", "municipality": "Wien", "lat": 48.287863, "lon": 16.463265, "rbl": 4403},
  {"name": "Kagraner Platz", "municipality": "Wien", "lat": 48.247863, "lon": 16.437265, "rbl": 4404},
  {"name": "Kagran", "municipality": "Wien", "lat": 48.250863, "lon": 16.448265, "rbl": 4405},
  {"name": "Leopoldau", "municipality": "Wien", "lat": 48.272863, "lon": 16.458265, "rbl": 4406},
  {"name": "Heiligenstadt", "municipality": "Wien", "lat": 48.248863, "lon": 16.363265, "rbl": 4407},
  {"name": "Hütteldorf", "municipality": "Wien", "lat": 48.197863, "lon": 16.257265, "rbl": 4427},
  {"name": "Seestadt", "municipality": "Wien", "lat": 48.223863, "lon": 16.505265, "rbl": 4501}
]
